,City,Lat,Lng,Max Temp,Humidity,Cloudiness,Wind Speed,Country
0,tuzha,57.6062,47.936,3.33,94,100,5.95,RU
1,saldanha,-33.0117,17.9442,71.6,83,97,12.66,ZA
2,ostersund,63.1792,14.6357,19.4,86,40,17.27,SE
3,poum,-20.2333,164.0167,79.09,77,12,8.05,NC
4,serebryansk,49.6925,83.2892,-2.2,78,75,4.47,KZ
5,vaini,-21.2,-175.2,80.6,94,20,9.22,TO
6,tuktoyaktuk,69.4541,-133.0374,-7.6,77,90,9.22,CA
7,zhangye,38.9342,100.4517,46.06,45,100,11.63,CN
8,ushuaia,-54.8,-68.3,44.6,87,75,3.44,AR
9,tuatapere,-46.1333,167.6833,57.99,74,39,8.01,NZ
10,atuona,-9.8,-139.0333,79.0,76,0,10.89,PF
11,avarua,-21.2078,-159.775,77.0,94,63,1.14,CK
12,urumqi,43.801,87.6005,26.6,80,99,4.47,CN
13,massakory,12.996,15.7293,73.56,21,0,11.12,TD
14,canto do buriti,-8.11,-42.9444,70.86,92,93,3.58,BR
15,dikson,73.5069,80.5464,-17.59,89,99,7.99,RU
16,bredasdorp,-34.5322,20.0403,75.2,78,87,4.61,ZA
17,punta arenas,-53.15,-70.9167,50.0,53,90,19.57,CL
18,cockburn town,21.4612,-71.1419,76.06,78,16,19.95,TC
19,airai,-8.9266,125.4092,68.29,100,100,2.35,TL
20,muzhi,65.3667,64.6667,-17.61,84,100,2.51,RU
21,port blair,11.6667,92.75,82.17,63,100,12.95,IN
22,antigonish,45.6169,-61.9986,12.0,76,46,5.99,CA
23,rikitea,-23.1203,-134.9692,79.57,70,17,4.54,PF
24,wollongong,-34.4333,150.8833,91.99,85,100,5.01,AU
25,varzelandia,-15.7014,-44.0275,64.85,94,100,3.51,BR
26,hermanus,-34.4187,19.2345,73.0,90,67,1.99,ZA
27,andenes,69.3143,16.1194,32.0,86,90,32.21,NO
28,krechevitsy,58.617,31.401,-1.12,92,100,7.58,RU
29,kuah,6.3265,99.8432,89.6,66,20,8.05,MY
30,busselton,-33.65,115.3333,80.01,46,0,10.13,AU
31,ambovombe,-25.1667,46.0833,79.83,73,97,13.71,MG
32,port augusta,-32.5,137.7667,75.0,53,77,17.27,AU
33,victoria,22.2855,114.1577,73.99,52,20,8.05,HK
34,loei,17.4167,101.5,91.0,37,0,2.3,TH
35,lubango,-14.9172,13.4925,60.8,46,20,9.22,AO
36,nyagan,62.1406,65.3936,-15.54,86,100,1.57,RU
37,clyde river,70.4692,-68.5914,3.2,85,100,23.02,CA
38,bonavista,48.6499,-53.1147,28.0,93,100,10.36,CA
39,new norfolk,-42.7826,147.0587,71.01,55,94,5.01,AU
40,talara,-4.5772,-81.2719,73.67,85,80,9.93,PE
41,castro,-24.7911,-50.0119,59.18,97,100,3.96,BR
42,butaritari,3.0707,172.7902,81.41,77,5,11.39,KI
43,mattru,7.6244,-11.8332,72.52,94,100,1.7,SL
44,presidencia roque saenz pena,-26.7852,-60.4388,69.01,91,21,1.99,AR
45,batagay-alyta,67.8006,130.4114,-8.25,82,81,0.81,RU
46,ratholo,-22.7245,27.572,75.24,64,8,4.54,BW
47,vila franca do campo,37.7167,-25.4333,61.0,88,40,24.16,PT
48,albany,42.6001,-73.9662,12.0,61,20,6.91,US
49,coquimbo,-29.9533,-71.3436,60.8,88,0,3.44,CL
50,lebu,-37.6167,-73.65,57.72,92,23,12.8,CL
51,mataura,-46.1927,168.8643,57.99,74,0,8.01,NZ
52,bethel,41.3712,-73.414,17.6,49,1,5.75,US
53,torbay,47.6666,-52.7314,25.0,93,90,29.93,CA
54,sal rei,16.1833,-22.9167,68.0,83,20,14.97,CV
55,east london,-33.0153,27.9116,80.6,74,0,3.44,ZA
56,nikolskoye,59.7035,30.7861,3.99,85,75,8.95,RU
57,taltal,-25.4,-70.4833,63.97,76,2,2.3,CL
58,san felipe,10.3399,-68.7425,69.6,88,94,4.88,VE
59,chuy,-33.6971,-53.4616,70.25,92,100,10.49,UY
60,carson,33.8314,-118.282,55.99,76,75,4.61,US
61,barreirinhas,-2.7469,-42.8264,76.42,91,82,4.81,BR
62,saskylakh,71.9167,114.0833,-22.76,83,63,5.1,RU
63,alvaraes,-3.2208,-64.8042,72.48,99,100,2.3,BR
64,garowe,8.4054,48.4845,77.49,29,100,12.19,SO
65,ancud,-41.8697,-73.8203,52.0,82,0,11.5,CL
66,hofn,64.2539,-15.2082,40.35,71,100,18.41,IS
67,anito,12.4497,125.2886,82.24,82,79,3.91,PH
68,deputatskiy,69.3,139.9,-6.05,88,100,2.86,RU
69,mount gambier,-37.8333,140.7667,64.4,63,90,18.41,AU
70,kodiak,57.79,-152.4072,39.2,87,90,26.46,US
71,puerto ayora,-0.7393,-90.3518,75.0,98,70,7.61,EC
72,bosaso,11.2842,49.1816,75.2,69,0,6.73,SO
73,san cristobal,7.7669,-72.225,66.11,82,83,0.81,VE
74,tiksi,71.6872,128.8694,-10.98,89,41,2.77,RU
75,labuhan,-6.8844,112.2051,83.26,79,100,13.09,ID
76,rodos,36.4408,28.2225,62.01,77,40,10.36,GR
77,college,64.8569,-147.8028,10.99,72,75,3.02,US
78,beringovskiy,63.05,179.3167,-19.44,84,100,21.39,RU
79,isiro,2.7739,27.616,85.06,41,67,2.1,CD
80,provideniya,64.3833,-173.3,-6.81,85,100,25.7,RU
81,berlevag,70.8578,29.0864,21.2,63,0,19.57,NO
82,mar del plata,-38.0023,-57.5575,70.0,88,90,11.5,AR
83,matara,5.9485,80.5353,83.68,63,0,7.18,LK
84,tasiilaq,65.6145,-37.6368,19.4,86,90,29.93,GL
85,jamestown,42.097,-79.2353,10.4,72,75,5.75,US
86,cherskiy,68.75,161.3,-25.78,83,0,0.34,RU
87,dubrovka,53.6907,33.5071,8.6,85,90,13.42,RU
88,mapiri,-15.25,-68.1667,66.61,90,100,1.36,BO
89,menongue,-14.6585,17.691,68.68,60,100,3.38,AO
90,lompoc,34.6391,-120.4579,53.6,94,90,6.91,US
91,grand gaube,-20.0064,57.6608,84.0,62,48,10.0,MU
92,benghazi,32.1167,20.0667,59.92,69,6,12.06,LY
93,keuruu,62.2667,24.7,10.99,85,90,5.75,FI
94,tessalit,20.1986,1.0114,66.13,21,0,10.92,ML
95,mahendranagar,28.9167,80.3333,78.08,28,40,5.03,NP
96,grindavik,63.8424,-22.4338,37.4,75,90,26.46,IS
97,sao joao da barra,-21.6403,-41.0511,76.15,84,100,13.06,BR
98,atasu,48.6814,71.6433,14.45,88,0,2.37,KZ
99,paka,4.6374,103.4368,82.4,83,40,1.14,MY
100,podor,16.6527,-14.9587,68.0,49,0,2.3,MR
101,cape town,-33.9258,18.4232,73.99,88,75,18.41,ZA
102,bluff,-46.6,168.3333,57.99,74,0,8.01,NZ
103,concordia,-31.393,-58.0209,70.0,91,100,5.99,AR
104,mantsala,60.6609,25.2838,-5.8,92,75,3.44,FI
105,beian,63.6559,9.5683,30.2,59,0,19.57,NO
106,puerto carreno,6.189,-67.4859,78.78,59,65,7.05,CO
107,georgetown,5.4112,100.3354,89.6,62,20,10.36,MY
108,hobart,-42.8794,147.3294,71.01,40,0,14.97,AU
109,three hills,51.7001,-113.2686,-9.4,70,91,20.71,CA
110,arraial do cabo,-22.9661,-42.0278,75.74,88,100,14.16,BR
111,aklavik,68.2191,-135.0107,1.4,71,20,4.61,CA
112,hasaki,35.7333,140.8333,54.0,50,75,8.05,JP
113,pangnirtung,66.1451,-65.7125,-14.91,83,90,1.03,CA
114,alta floresta,-9.8756,-56.0861,70.38,98,95,1.7,BR
115,ostrovnoy,68.0531,39.5131,6.22,93,100,6.29,RU
116,revelstoke,50.9832,-118.2023,3.2,72,1,2.3,CA
117,ilulissat,69.2167,-51.1,6.8,66,0,6.91,GL
118,pochutla,15.7432,-96.4661,70.0,84,1,3.0,MX
119,barrow,71.2906,-156.7887,-29.2,79,90,6.91,US
120,pangoa,-12.1167,-73.0,65.97,96,100,2.24,PE
121,fukuma,33.7667,130.4667,63.0,41,0,6.91,JP
122,kavieng,-2.5744,150.7967,83.46,74,57,9.6,PG
123,severo-kurilsk,50.6789,156.125,28.8,93,100,1.66,RU
124,bilma,18.6853,12.9164,66.24,24,0,9.17,NE
125,port elizabeth,-33.918,25.5701,78.8,78,0,8.05,ZA
126,lorengau,-2.0226,147.2712,84.67,76,45,8.16,PG
127,mocuba,-16.8392,36.9856,81.14,86,100,6.2,MZ
128,umm kaddadah,13.6017,26.6876,78.8,20,11,18.25,SD
129,zhigansk,66.7697,123.3711,-4.09,91,100,7.16,RU
130,yellowknife,62.456,-114.3525,-15.0,83,1,4.61,CA
131,nome,64.5011,-165.4064,15.8,86,90,25.32,US
132,raudeberg,61.9875,5.1352,24.01,47,0,8.48,NO
133,norman wells,65.282,-126.8329,-14.8,76,20,4.61,CA
134,zwolle,52.5126,6.0936,18.0,88,0,1.99,NL
135,saint-philippe,-21.3585,55.7679,88.0,62,0,28.77,RE
136,kapaa,22.0752,-159.319,66.2,82,1,8.05,US
137,hilo,19.7297,-155.09,69.8,78,75,7.18,US
138,luderitz,-26.6481,15.1594,65.61,83,94,5.77,NA
139,ambon,-3.6954,128.1814,87.8,74,40,9.22,ID
140,senno,59.5336,33.9167,-7.8,90,0,3.91,RU
141,vao,-22.6667,167.4833,77.95,75,5,4.27,NC
142,makinsk,52.6292,70.4169,4.15,93,70,5.95,KZ
143,dwarka,22.2394,68.9678,79.93,32,0,5.88,IN
144,shingu,33.7333,135.9833,57.2,58,75,3.44,JP
145,souillac,-20.5167,57.5167,84.2,70,40,12.66,MU
146,warri,5.5167,5.75,80.6,83,0,5.37,NG
147,port alfred,-33.5906,26.891,82.42,57,96,0.47,ZA
148,namtsy,62.7161,129.6658,-7.6,84,0,2.04,RU
149,kununurra,-15.7667,128.7333,93.2,62,75,9.22,AU
150,havelock,34.8791,-76.9013,43.0,100,90,17.27,US
151,yaounde,3.8667,11.5167,73.87,82,98,2.51,CM
152,baghdad,33.3406,44.4009,62.6,59,0,5.75,IQ
153,bafra,41.5678,35.9069,68.0,24,0,6.91,TR
154,hambantota,6.1241,81.1185,87.8,58,20,5.75,LK
155,saint george,37.1041,-113.5841,57.0,43,90,5.75,US
156,qaanaaq,77.484,-69.3632,7.99,72,0,8.5,GL
157,touba,8.2833,-7.6833,69.62,90,35,5.79,CI
158,havre-saint-pierre,50.2334,-63.5986,24.8,68,90,12.66,CA
159,aguimes,27.9054,-15.4461,62.6,82,75,12.66,ES
160,todos santos,23.45,-110.2167,62.01,83,0,1.99,MX
161,batemans bay,-35.7167,150.1833,69.01,90,27,8.41,AU
162,faanui,-16.4833,-151.75,81.57,71,0,8.43,PF
163,acarau,-2.8856,-40.12,78.15,85,22,10.6,BR
164,namibe,-15.1961,12.1522,76.01,67,84,9.37,AO
165,kirensk,57.7853,108.1119,-0.81,86,99,6.04,RU
166,mbandaka,0.0487,18.2603,80.67,61,0,5.26,CD
167,fort frances,48.5999,-93.4003,-16.6,76,90,4.61,CA
168,fukue,32.6881,128.8419,57.2,58,0,6.91,JP
169,tonj,7.2737,28.6822,86.38,14,0,5.32,SS
170,le pradet,43.1066,6.0172,50.0,70,0,3.44,FR
171,lincoln,40.8,-96.667,0.0,65,75,11.5,US
172,komsomolskiy,40.4272,71.7189,57.2,41,100,2.3,UZ
173,galyugayevskaya,43.6969,44.9344,44.6,70,41,2.24,RU
174,thompson,55.7435,-97.8558,-38.2,67,1,4.12,CA
175,khatanga,71.9667,102.5,-23.78,86,93,6.96,RU
176,kahului,20.8947,-156.47,71.6,64,1,10.36,US
177,upernavik,72.7868,-56.1549,2.71,84,100,9.84,GL
178,mahebourg,-20.4081,57.7,84.2,70,40,12.66,MU
179,emerald,-23.5333,148.1667,95.0,34,75,6.91,AU
180,korla,41.7597,86.1469,45.25,51,36,8.5,CN
181,avera,33.194,-82.5271,60.8,96,90,3.44,US
182,mokobeng,-22.9965,27.6678,76.86,61,0,3.65,BW
183,kenora,49.8167,-94.4337,-22.0,76,75,3.44,CA
184,fortuna,40.5982,-124.1573,48.0,100,90,6.91,US
185,bathsheba,13.2167,-59.5167,77.0,69,40,18.41,BB
186,ouallam,14.3188,2.0866,70.79,19,0,9.42,NE
187,vestmannaeyjar,63.4427,-20.2734,41.0,70,90,43.73,IS
188,sitka,57.0531,-135.33,30.2,29,1,9.22,US
189,kostomuksha,64.571,30.5767,-1.39,93,46,5.06,RU
190,nishihara,26.1842,127.7558,69.8,77,75,18.41,JP
191,iqaluit,63.7506,-68.5145,-5.01,84,1,3.44,CA
192,chapais,49.7834,-74.8492,-5.8,77,90,10.36,CA
193,port hedland,-20.3167,118.5667,89.6,58,0,19.57,AU
194,cabo san lucas,22.8909,-109.9124,60.01,85,0,3.0,MX
195,pevek,69.7008,170.3133,-21.35,88,100,4.21,RU
196,nuqui,5.7125,-77.2708,76.84,85,50,3.62,CO
197,umm lajj,25.0213,37.2685,80.19,46,7,9.31,SA
198,nicholasville,37.8806,-84.573,25.0,86,90,9.22,US
199,klaksvik,62.2266,-6.589,28.4,80,54,8.05,FO
200,pimentel,-6.8367,-79.9342,72.0,85,75,3.0,PE
201,madruga,22.9114,-81.8561,69.8,100,40,4.61,CU
202,seoul,37.5683,126.9778,57.2,35,2,3.44,KR
203,dingle,10.9995,122.6711,84.02,77,59,5.7,PH
204,geraldton,-28.7667,114.6,87.8,33,0,24.16,AU
205,requena,39.4883,-1.1004,62.6,67,20,11.5,ES
206,riohacha,11.5444,-72.9072,74.82,81,27,12.5,CO
207,coswig,51.1333,13.5833,19.4,93,75,3.44,DE
208,gat,31.61,34.7642,55.99,100,0,1.99,IL
209,mongoumba,3.6415,18.5936,81.48,17,0,3.09,CF
210,savannah bight,16.45,-85.85,79.0,87,58,4.0,HN
211,vostochnyy,55.8167,37.8667,6.01,78,90,13.42,RU
212,hithadhoo,-0.6,73.0833,82.08,75,100,10.38,MV
213,sibolga,1.7427,98.7792,87.28,59,10,6.4,ID
214,port-cartier,50.0334,-66.8654,23.0,73,98,5.75,CA
215,nachingwea,-10.3833,38.7667,71.44,96,100,6.38,TZ
216,ankang,32.68,109.0172,70.05,33,1,0.6,CN
217,sheregesh,52.9209,87.9869,6.49,89,0,2.44,RU
218,ixtapa,20.7,-105.2,60.31,84,3,1.95,MX
219,jinxiang,27.4327,120.6062,58.62,78,86,10.42,CN
220,marawi,7.9986,124.2928,82.0,78,100,4.0,PH
221,isangel,-19.55,169.2667,82.4,83,90,3.04,VU
222,ponta do sol,32.6667,-17.1,57.99,69,12,3.0,PT
223,dunedin,-45.8742,170.5036,59.0,69,28,1.01,NZ
224,waingapu,-9.6567,120.2641,84.18,75,83,7.94,ID
225,pangody,65.85,74.4859,-32.22,82,5,1.92,RU
226,namatanai,-3.6667,152.4333,81.36,81,100,6.42,PG
227,sobolevo,54.4299,31.8996,6.37,94,100,22.03,RU
228,port hardy,50.6996,-127.4199,33.8,46,75,24.16,CA
229,salalah,17.0151,54.0924,84.2,20,0,11.5,OM
230,pokosnoye,55.5258,101.0536,-4.11,86,100,7.72,RU
231,rio gallegos,-51.6226,-69.2181,46.4,71,0,11.5,AR
232,mokhsogollokh,61.4681,128.9203,-2.09,91,100,1.21,RU
233,fairbanks,64.8378,-147.7164,10.99,85,90,3.44,US
234,malakal,9.5334,31.6605,87.78,15,8,6.64,SS
235,sinnamary,5.3833,-52.95,76.96,86,60,12.55,GF
236,samarai,-10.6167,150.6667,83.57,73,85,10.78,PG
237,marrakesh,31.6315,-8.0083,55.4,94,90,4.61,MA
238,catuday,16.2923,119.8062,75.63,79,73,18.45,PH
239,damghan,36.1683,54.348,54.34,38,0,3.18,IR
240,okha,53.5739,142.9478,16.21,97,90,3.6,RU
241,celestun,20.8667,-90.4,74.93,79,0,11.3,MX
242,honiara,-9.4333,159.95,78.15,82,100,2.91,SB
243,eydhafushi,5.1033,73.0708,79.93,74,1,13.89,MV
244,quesnel,52.9999,-122.5029,-20.2,76,75,0.29,CA
245,abha,18.2164,42.5053,62.6,45,0,4.61,SA
246,adrar,20.5022,-10.0711,60.04,25,0,10.54,MR
247,bandarbeyla,9.4942,50.8122,77.65,59,4,16.46,SO
248,bondowoso,-7.9135,113.8214,80.83,78,100,0.83,ID
249,kruisfontein,-34.0033,24.7314,86.0,58,100,1.01,ZA
250,codrington,-38.2667,141.9667,64.17,59,72,16.4,AU
251,zheleznogorsk,52.331,35.3711,13.51,96,100,17.9,RU
252,ribeira grande,38.5167,-28.7,60.21,76,15,17.69,PT
253,paamiut,61.994,-49.6678,26.37,88,100,11.56,GL
254,esperance,-33.8667,121.9,73.4,46,0,16.11,AU
255,maniitsoq,65.4167,-52.9,12.83,87,0,4.18,GL
256,yuanping,38.7153,112.7575,52.14,35,2,2.59,CN
257,juneau,58.3019,-134.4197,26.6,28,1,19.57,US
258,roma,43.2128,-75.4557,3.0,66,1,4.29,US
259,naryan-mar,67.6713,53.087,-13.52,89,97,5.08,RU
260,amapa,1.0,-52.0,70.74,99,51,2.04,BR
261,xai-xai,-25.0519,33.6442,78.46,88,100,14.45,MZ
262,boguchany,58.3814,97.4531,-6.2,87,100,8.39,RU
263,sao filipe,14.8961,-24.4956,71.85,68,0,13.04,CV
264,newport,51.5877,-2.9984,33.01,73,100,1.99,GB
265,carnarvon,-24.8667,113.6333,82.4,78,75,17.27,AU
266,linares,-35.85,-71.6,59.14,93,92,2.57,CL
267,inhambane,-23.865,35.3833,80.6,78,75,11.5,MZ
268,inta,66.0317,60.1659,-18.11,85,100,2.28,RU
269,atar,20.5169,-13.0499,60.42,27,0,10.63,MR
270,saint-pierre,-21.3393,55.4781,88.0,62,0,28.77,RE
271,wilmington,34.2257,-77.9447,46.99,93,90,8.05,US
272,sao jose da coroa grande,-8.8978,-35.1478,77.0,83,13,6.91,BR
273,necochea,-38.5473,-58.7368,64.99,97,95,1.01,AR
274,gizo,-8.103,156.8419,80.91,81,100,15.86,SB
275,touros,-5.1989,-35.4608,75.2,94,75,6.91,BR
276,hamilton,39.1834,-84.5333,21.2,73,90,8.05,US
277,laguna,38.421,-121.4238,54.0,94,90,6.91,US
278,tura,25.5198,90.2201,80.56,27,89,5.5,IN
279,manggar,-2.8833,108.2667,85.59,66,30,14.83,ID
280,arlit,18.7369,7.3853,69.8,19,0,4.38,NE
281,povenets,62.8487,34.8262,-6.75,91,77,1.86,RU
282,aswan,24.0934,32.907,74.73,18,0,13.67,EG
283,waw,7.7029,27.9953,84.51,15,27,4.41,SS
284,zabol,32.25,67.25,53.94,34,100,4.94,AF
285,urucui,-7.2294,-44.5561,73.27,92,100,3.11,BR
286,rundu,-17.9333,19.7667,67.84,85,100,4.76,NA
287,parabel,58.6978,81.4825,-14.98,87,100,8.25,RU
288,priekule,56.4468,21.5897,8.6,92,90,4.92,LV
289,vila,42.0304,-8.1588,48.0,95,54,8.01,PT
290,talnakh,69.4865,88.3972,-20.92,86,98,2.06,RU
291,aksarka,66.5606,67.7975,-21.37,85,94,3.36,RU
292,sorland,67.667,12.6934,35.6,75,75,8.05,NO
293,henties bay,-22.116,14.2845,68.0,92,5,1.99,NA
294,verkhniye kigi,55.4083,58.6044,9.9,93,38,3.47,RU
295,flin flon,54.7682,-101.865,-21.6,87,100,4.47,CA
296,bubaque,11.2833,-15.8333,76.95,51,0,13.65,GW
297,kushima,31.4583,131.2333,59.0,72,75,16.11,JP
298,mount isa,-20.7333,139.5,96.8,36,98,10.36,AU
299,buraydah,26.326,43.975,59.0,82,0,6.13,SA
300,alice springs,-23.7,133.8833,96.8,32,40,16.11,AU
301,sao francisco,-15.9486,-44.8644,69.06,86,100,2.64,BR
302,vladyslavivka,45.1667,35.3667,51.91,73,100,8.19,UA
303,vardo,70.3705,31.1107,15.8,86,60,25.32,NO
304,gilgit,35.9221,74.3087,42.46,47,100,3.15,PK
305,nanortalik,60.1432,-45.2371,29.7,89,100,8.14,GL
306,kutum,14.2,24.6667,71.67,22,32,11.77,SD
307,trinidad,-14.8333,-64.9,67.06,92,95,4.16,BO
308,srednekolymsk,67.45,153.6833,-29.45,82,0,3.65,RU
309,kalaleh,37.3807,55.4916,55.4,67,0,3.76,IR
310,kaitangata,-46.2817,169.8464,57.0,68,0,5.01,NZ
311,terney,45.0503,136.6092,29.26,94,100,1.61,RU
312,muros,42.7762,-9.0603,54.0,91,15,5.01,ES
313,narsaq,60.9167,-46.05,39.2,28,75,36.82,GL
314,puerto escondido,15.85,-97.0667,74.41,73,0,6.98,MX
315,praia,14.9215,-23.5087,69.8,56,0,21.85,CV
316,healdsburg,38.6105,-122.8692,46.99,93,1,6.91,US
317,yangambi,0.8102,24.4336,83.14,52,92,2.21,CD
318,elizabeth city,36.2946,-76.2511,37.4,93,90,19.57,US
319,kummersbruck,49.4192,11.8883,8.01,78,1,3.58,DE
320,pisco,-13.7,-76.2167,73.4,78,90,2.3,PE
321,san policarpo,12.1791,125.5072,82.99,75,4,1.12,PH
322,rocha,-34.4833,-54.3333,68.36,92,100,10.13,UY
323,paine,-33.8167,-70.75,66.0,82,90,3.44,CL
324,la ronge,55.1001,-105.2842,-13.0,70,100,5.75,CA
325,khorinsk,52.1657,109.7726,7.68,83,53,13.13,RU
326,sur,22.5667,59.5289,77.2,38,0,5.95,OM
327,galle,6.0367,80.217,82.4,67,42,7.14,LK
328,atherton,53.5237,-2.4935,34.0,56,100,10.0,GB
329,langsa,4.4683,97.9683,86.77,61,100,6.6,ID
330,acapulco,16.8634,-99.8901,71.91,81,8,6.26,MX
331,bela vista de goias,-16.9728,-48.9533,69.8,94,90,5.75,BR
332,nelson bay,-32.7167,152.15,84.99,61,100,8.05,AU
333,palafrugell,41.9174,3.1631,51.01,93,100,2.3,ES
334,orotukan,62.2667,151.7,-5.04,89,100,1.77,RU
335,kampong thum,12.7111,104.8887,90.43,27,0,6.93,KH
336,los llanos de aridane,28.6585,-17.9182,62.6,67,40,9.22,ES
337,lavrentiya,65.5833,-171.0,-13.99,83,100,17.05,RU
338,tiznit,29.5833,-9.5,54.28,75,0,0.58,MA
339,chokurdakh,70.6333,147.9167,-18.83,76,0,3.27,RU
340,gaozhou,21.9392,110.8461,70.43,54,100,2.86,CN
341,padang,-0.9492,100.3543,87.8,66,20,8.05,ID
342,naze,28.3667,129.4833,66.2,77,75,21.85,JP
343,baruun-urt,46.6806,113.2792,12.92,89,100,3.04,MN
344,saint anthony,45.0205,-93.218,-4.0,65,90,11.5,US
345,buala,-8.145,159.5921,81.46,81,100,6.71,SB
346,cartagena del chaira,1.3349,-74.8429,72.41,75,0,2.06,CO
347,constitucion,-35.3333,-72.4167,59.52,91,90,4.34,CL
348,kamina,-8.7386,24.9906,70.12,90,99,2.86,CD
349,leningradskiy,69.3833,178.4167,-14.15,85,100,15.84,RU
350,san luis,-33.295,-66.3356,64.44,64,40,4.61,AR
351,saint augustine,29.8947,-81.3145,66.2,100,20,4.61,US
352,bambous virieux,-20.3428,57.7575,84.2,70,40,12.66,MU
353,mehamn,71.0357,27.8492,17.6,79,0,16.11,NO
354,supe,-10.8,-77.7333,71.98,70,100,3.18,PE
355,akdepe,42.0551,59.3788,35.6,75,0,11.5,TM
356,vanimo,-2.6741,141.3028,84.63,75,100,10.54,PG
357,bereda,43.2686,-7.5406,48.99,100,89,5.99,ES
358,price,39.5994,-110.8107,35.6,69,90,3.44,US
359,amot,59.5714,7.9877,-2.2,84,0,6.38,NO
360,askiz,53.1319,90.5264,-6.81,86,44,3.62,RU
361,hami,42.8,93.45,42.37,53,4,1.74,CN
362,pleasanton,37.6624,-121.8747,51.01,93,90,14.97,US
363,sangre grande,10.5835,-61.1177,75.99,88,20,9.15,TT
364,camocim,-2.9022,-40.8411,76.86,90,37,9.78,BR
365,qandala,11.472,49.8728,77.95,38,7,6.98,SO
366,port macquarie,-31.4333,152.9167,81.0,69,100,1.99,AU
367,hatillo,18.4863,-66.8254,68.0,93,0,11.7,PR
368,cidreira,-30.1811,-50.2056,74.52,83,81,12.95,BR
369,pandan niog,6.2282,120.5631,82.8,73,100,10.49,PH
370,havoysund,70.9963,24.6622,24.8,68,0,3.44,NO
371,bambanglipuro,-7.95,110.2833,83.05,76,100,8.95,ID
372,saryagash,41.4511,69.1701,64.4,27,100,6.91,KZ
373,spas,48.8899,24.0629,8.6,72,75,15.66,UA
374,san ramon,37.7799,-121.978,50.0,93,90,14.97,US
375,sabha,27.0377,14.4283,55.13,42,0,10.27,LY
376,killybegs,54.6333,-8.45,32.0,92,54,8.99,IE
377,alghero,40.5589,8.3181,41.0,93,100,2.3,IT
378,taunggyi,20.7833,97.0333,79.47,22,2,4.09,MM
379,general roca,-39.0333,-67.5833,71.6,68,0,2.3,AR
380,eau claire,44.8114,-91.4985,-2.0,65,90,8.05,US
381,dapdap,12.062,125.4881,82.98,76,6,1.61,PH
382,kathu,7.9178,98.3332,91.4,55,20,10.36,TH
383,sokoni,-6.4333,39.55,80.6,83,75,13.8,TZ
384,nouadhibou,20.931,-17.0347,59.0,82,0,17.27,MR
385,mayo,38.8876,-76.5119,32.0,59,90,5.75,US
386,chor,25.5167,69.7667,89.02,11,0,1.12,PK
387,dalvik,65.9702,-18.5286,8.6,85,0,3.44,IS
388,amahai,-3.3333,128.9167,85.3,72,100,3.49,ID
389,hauterive,46.0901,3.4459,32.0,86,90,2.3,FR
390,kamakwie,9.5,-12.2333,66.16,91,0,0.51,SL
391,ayorou,14.7308,0.9174,70.61,19,0,10.69,NE
392,ipanema,-30.1391,-51.2244,73.0,100,0,5.75,BR
393,beisfjord,68.3751,17.5988,32.0,59,75,9.22,NO
394,baoding,38.8511,115.4903,61.34,30,32,8.03,CN
395,ziro,27.6333,93.8333,78.8,44,20,3.44,IN
396,salinopolis,-0.6136,-47.3561,77.88,87,99,9.57,BR
397,pemangkat,1.1667,108.9667,82.13,80,96,15.03,ID
398,san patricio,28.017,-97.5169,39.2,93,90,18.41,US
399,neryungri,56.6709,124.6491,2.1,91,100,7.7,RU
400,tinde,-3.8833,33.2,72.25,80,90,2.39,TZ
401,aripuana,-9.1667,-60.6333,72.18,97,98,2.21,BR
402,uri,34.0833,74.0333,57.27,34,98,5.86,IN
403,viedma,-40.8135,-62.9967,64.0,91,0,9.13,AR
404,vysoke,50.3833,29.5167,14.0,79,90,17.9,UA
405,maneadero,31.7167,-116.5667,57.0,85,29,1.99,MX
406,badarwas,24.9667,77.5667,83.21,14,5,2.62,IN
407,pacifica,37.6138,-122.4869,53.01,93,75,13.8,US
408,zunheboto,25.9667,94.5167,72.48,28,0,3.11,IN
409,polyarnyy,69.1989,33.4478,-4.0,84,40,2.24,RU
410,mende,44.6667,3.5,35.58,95,100,3.2,FR
411,kaniama,-7.5667,24.1833,71.2,94,95,2.59,CD
412,oistins,13.0667,-59.5333,77.0,69,40,18.41,BB
413,margate,51.3813,1.3862,33.01,56,85,5.01,GB
414,safaga,26.7292,33.9365,62.6,34,0,3.44,EG
415,waipawa,-41.4122,175.5153,60.8,77,52,14.97,NZ
416,cayhagan,9.6697,122.4256,82.92,72,22,7.7,PH
417,palatka,29.6486,-81.6376,69.01,83,0,1.9,US
418,miram shah,33.0086,70.0697,67.84,24,41,4.29,PK
419,mayya,61.7333,130.2811,-7.6,84,0,3.11,RU
420,ako,34.75,134.4,59.0,44,75,6.91,JP
421,tucumcari,35.1717,-103.725,15.8,73,90,21.85,US
422,richards bay,-28.783,32.0377,80.82,75,88,4.68,ZA
423,quelimane,-17.8786,36.8883,82.4,74,40,9.22,MZ
424,huarmey,-10.0681,-78.1522,73.15,69,100,4.25,PE
425,lazo,43.3817,133.9014,35.6,85,97,2.98,RU
426,caravelas,-17.7125,-39.2481,74.59,83,100,4.18,BR
427,dire,12.2833,-10.9667,69.93,23,0,0.85,ML
428,concepcion del oro,24.6333,-101.4167,46.04,52,2,3.47,MX
429,mayna,54.1135,47.6231,8.92,96,92,6.44,RU
430,malamig,12.95,121.3667,82.45,74,67,6.06,PH
431,redmond,47.674,-122.1215,30.0,83,100,5.28,US
432,ayagoz,47.9714,80.4392,14.09,95,100,1.48,KZ
433,nouakchott,18.0858,-15.9785,60.8,20,0,11.5,MR
434,provost,52.3501,-110.2683,-14.8,76,100,11.5,CA
435,ampanihy,-24.7,44.75,75.49,78,100,10.04,MG
436,dakar,14.6937,-17.4441,64.4,88,72,4.61,SN
437,hobyo,5.3505,48.5268,80.1,60,9,18.59,SO
438,bonthe,7.5264,-12.505,75.34,90,100,3.69,SL
439,tanout,14.9709,8.8879,67.48,21,0,9.24,NE
440,chumikan,54.7183,135.315,16.65,95,100,16.42,RU
441,martapura,-3.4167,114.85,78.8,83,40,2.3,ID
442,jumla,29.2747,82.1838,59.34,29,8,6.33,NP
443,gravdal,68.1214,13.5031,33.8,69,75,21.85,NO
444,pervomayskoye,43.919,46.7102,50.85,57,0,13.8,RU
445,tsumeb,-19.2333,17.7167,65.93,91,100,2.46,NA
446,concepcion,-36.827,-73.0498,60.8,94,90,2.3,CL
447,chatham,51.3789,0.5279,30.99,69,100,3.0,GB
448,madang,-5.2246,145.7966,83.77,74,100,6.17,PG
449,zigong,29.3416,104.7769,68.72,41,0,5.86,CN
450,nchelenge,-9.3451,28.734,72.0,86,100,5.73,ZM
451,vila velha,-20.3297,-40.2925,73.4,94,20,3.44,BR
452,acari,-15.4311,-74.6158,71.44,66,2,0.25,PE
453,te anau,-45.4167,167.7167,59.5,75,49,5.97,NZ
454,mahibadhoo,3.7833,72.9667,80.11,75,0,14.7,MV
455,bolshaya rechka,51.9503,104.7355,5.0,66,40,6.71,RU
456,almaznyy,48.0448,40.045,44.6,87,0,13.42,RU
457,ulladulla,-35.35,150.4667,73.4,88,90,6.91,AU
458,lethem,3.3803,-59.7968,75.2,76,20,10.78,GY
459,black river,18.0264,-77.8487,75.2,78,75,1.14,JM
460,westport,41.1415,-73.3579,21.99,45,1,8.05,US
461,ifakara,-8.1333,36.6833,78.37,77,98,2.08,TZ
462,owando,-0.4819,15.8999,80.53,65,0,5.93,CG
463,yuli,9.6989,10.2744,71.02,21,0,5.14,NG
464,panama city,8.9936,-79.5197,75.2,88,75,8.05,PA
465,swan hill,-35.3378,143.5544,83.57,19,82,11.74,AU
466,ilhabela,-23.7781,-45.3581,74.43,83,100,2.89,BR
467,waterbury,41.5582,-73.0515,15.8,62,1,10.36,US
468,ereymentau,51.6199,73.1033,5.11,92,0,2.24,KZ
469,bilibino,68.0546,166.4372,-20.04,76,0,2.98,RU
470,kunming,25.0389,102.7183,66.0,39,20,13.42,CN
471,half moon bay,37.4636,-122.4286,53.01,93,75,13.8,US
472,macara,-4.3833,-79.95,72.23,80,100,2.59,EC
473,paris,48.8534,2.3488,26.01,63,0,17.27,FR
474,santa cruz de tenerife,28.4682,-16.2546,62.01,100,75,6.91,ES
475,fereydun kenar,36.6864,52.5225,50.0,93,40,13.8,IR
476,haines junction,60.7522,-137.5108,-29.2,68,0,1.14,CA
477,bukama,-9.2,25.85,72.91,93,100,0.36,CD
478,osmena,10.5208,119.9258,82.08,80,18,12.95,PH
479,dakoro,14.5106,6.765,67.1,22,0,9.6,NE
480,zemio,5.0314,25.1361,84.24,19,0,4.05,CF
481,saint-paul,-21.0096,55.2707,77.0,89,6,1.01,RE
482,kodinsk,58.6881,99.1844,-7.28,86,100,7.87,RU
483,bengkulu,-3.8004,102.2655,85.75,62,24,9.86,ID
484,bontang,0.1333,117.5,84.76,69,77,5.01,ID
485,husavik,66.0449,-17.3389,8.6,85,0,3.44,IS
486,charters towers,-20.1,146.2667,83.03,65,99,11.77,AU
487,kuytun,54.3419,101.5036,-4.2,88,100,2.71,RU
488,karoi,-16.8099,29.6925,65.71,93,100,3.4,ZW
489,coahuayana,18.7333,-103.6833,69.55,78,81,2.35,MX
490,ust-nera,64.5667,143.2,5.07,82,100,0.36,RU
491,ballina,-28.8667,153.5667,84.2,61,58,13.8,AU
492,wucheng,29.6008,118.175,62.01,83,99,2.46,CN
493,hualmay,-11.0964,-77.6139,72.45,69,100,5.12,PE
494,monduli,-3.3,36.45,68.0,88,75,6.91,TZ
495,tripoli,32.8752,13.1875,56.91,55,0,5.64,LY
496,gotsu,35.0,132.2167,57.2,54,0,5.75,JP
497,port-gentil,-0.7193,8.7815,84.2,84,40,9.22,GA
498,lahat,-3.8,103.5333,84.42,74,100,4.79,ID
499,port keats,-14.25,129.55,86.38,67,100,8.1,AU
500,sibi,29.5448,67.8764,79.99,15,100,5.03,PK
501,santa fe,-31.6333,-60.7,71.01,84,4,2.26,AR
502,hammerfest,70.6634,23.6821,24.8,68,0,3.44,NO
503,yaan,7.3833,8.5667,76.28,73,11,4.47,NG
504,ossora,59.2353,163.0719,-6.56,75,0,12.48,RU
505,whitehorse,60.7161,-135.0538,-13.0,70,1,17.27,CA
506,bitung,1.4451,125.1824,84.2,79,40,4.61,ID
507,hyeres,43.1167,6.1167,50.0,70,0,3.44,FR
508,port lincoln,-34.7333,135.8667,65.82,61,80,16.42,AU
509,santa lucia,27.9117,-15.5407,62.6,82,75,12.66,ES
510,mezen,65.8522,44.24,-2.87,92,100,3.51,RU
511,brae,60.3964,-1.353,37.4,60,40,21.85,GB
512,san alberto,7.7611,-73.3922,77.14,58,33,2.08,CO
513,sambava,-14.2667,50.1667,85.26,64,26,6.51,MG
514,koslan,63.4564,48.8989,-3.89,91,100,4.27,RU
515,purpe,64.4803,76.6897,-31.14,82,12,4.52,RU
516,bauska,56.4075,24.1906,6.8,92,90,7.34,LV
517,pingzhuang,42.0372,119.2889,41.63,61,30,2.93,CN
518,mata,40.683,-7.4592,51.01,92,85,5.99,PT
519,powell river,49.8496,-124.5361,32.0,55,0,8.05,CA
520,yumen,40.2833,97.2,46.22,45,0,24.36,CN
521,jawhar,2.7809,45.5005,84.74,50,100,14.92,SO
522,ashland,40.8167,-82.2665,19.4,73,90,12.66,US
523,trebisov,48.6286,21.7195,12.99,72,20,3.44,SK
524,san angelo,31.4638,-100.437,28.4,93,90,12.66,US
525,sao sebastiao,-23.76,-45.4097,73.74,83,100,2.98,BR
526,homer,59.6425,-151.5483,33.8,86,90,19.57,US
527,anloga,5.7947,0.8973,82.4,89,75,6.91,GH
528,katsuura,35.1333,140.3,57.0,45,100,8.08,JP
529,urusha,54.05,122.9,18.81,97,100,6.17,RU
530,douglas,41.3,-96.167,-0.4,60,1,5.75,US
531,edd,13.9297,41.6925,83.61,41,4,11.61,ER
532,grand-santi,4.25,-54.3833,69.94,97,55,1.3,GF
533,rahuri,19.3833,74.65,87.06,17,66,6.08,IN
534,broome,42.2506,-75.833,9.0,78,1,6.91,US
535,aksay,47.26,39.87,44.6,87,0,13.42,RU
536,puerto leguizamo,-0.1934,-74.7819,73.29,69,12,2.35,CO
537,lucera,41.5082,15.3351,44.6,81,75,6.91,IT
538,bafq,31.6128,55.4107,64.51,25,0,5.3,IR
539,sisimiut,66.9395,-53.6735,6.82,79,0,5.01,GL
540,rosetta,31.4044,30.4164,53.6,87,99,5.26,EG
541,kavaratti,10.5669,72.642,82.02,56,60,5.23,IN
542,ushtobe,45.2514,77.9838,28.2,99,100,7.94,KZ
543,vila praia de ancora,41.811,-8.8526,54.0,93,75,1.14,PT
544,murray bridge,-35.1167,139.2667,70.0,67,0,18.32,AU
545,vicksburg,32.3526,-90.8779,33.8,100,90,12.66,US
546,coihaique,-45.5752,-72.0662,44.19,84,22,2.44,CL
547,petropavlovsk-kamchatskiy,53.0452,158.6483,21.2,73,17,4.47,RU
548,velingara,13.15,-14.1167,70.36,22,0,3.74,SN
549,zhanaozen,43.3,52.8,46.13,61,0,18.05,KZ
550,dandong,40.1292,124.3947,44.02,70,65,4.63,CN
551,olafsvik,64.8945,-23.7142,37.47,77,73,21.45,IS
552,orange,33.7,-117.7675,57.2,82,90,4.61,US
553,evensk,61.95,159.2333,-0.02,83,0,6.73,RU
554,agirish,61.9247,63.0231,-13.5,87,100,2.59,RU
555,saint-francois,46.4154,3.9054,24.01,86,0,11.5,FR
556,greenwood,34.1668,-82.1165,48.2,100,90,11.5,US
557,shache,38.4167,77.2406,61.59,25,0,5.88,CN
558,truth or consequences,33.1284,-107.2528,48.2,27,1,11.5,US
559,along,28.1667,94.7667,81.1,25,0,2.35,IN
560,lagoa,39.05,-27.9833,59.22,77,88,20.54,PT
561,monrovia,6.3005,-10.7969,79.29,87,100,4.9,LR
562,khoy,38.5504,44.9535,47.25,50,0,1.28,IR
563,tortoli,39.9256,9.6572,51.01,71,0,10.36,IT
564,andra,62.5147,65.8878,-18.27,86,100,2.13,RU
565,falmouth,50.1544,-5.0711,37.99,87,90,23.02,GB
566,oktyabrskoye,43.0645,44.7417,44.6,70,1,2.24,RU
567,tutoia,-2.7619,-42.2744,78.75,86,100,9.51,BR
